$GPGGA,115540.00,5130.4756,N,00011.0422,W,1,04,3.26,00024,M,047,M,,*7F
$GPGGA,115541.00,5130.4731,N,00011.0448,W,1,04,3.26,00022,M,047,M,,*75
$GPGGA,115542.00,5130.4718,N,00011.0456,W,1,03,3.51,00022,M,047,M,,*75
$GPGGA,115543.00,5130.4709,N,00011.0460,W,1,04,3.26,00022,M,047,M,,*76
$GPGGA,115544.00,5130.4701,N,00011.0465,W,1,04,3.26,00021,M,047,M,,*7F
$GPGGA,115545.00,5130.4693,N,00011.0469,W,1,04,3.27,00021,M,047,M,,*79
$GPGGA,115546.00,5130.4685,N,00011.0473,W,1,04,3.27,00021,M,047,M,,*76
$GPGGA,115547.00,5130.4677,N,00011.0475,W,1,04,3.27,00021,M,047,M,,*7C
$GPGGA,115548.00,5130.4669,N,00011.0478,W,1,04,3.27,00021,M,047,M,,*71
$GPGGA,115549.00,5130.4661,N,00011.0481,W,1,04,3.27,00021,M,047,M,,*7E
$GPGGA,115550.00,5130.4658,N,00011.0485,W,1,04,3.27,00020,M,047,M,,*79
$GPGGA,115551.00,5130.4655,N,00011.0488,W,1,04,3.27,00020,M,047,M,,*78
$GPGGA,115552.00,5130.4648,N,00011.0492,W,1,04,3.27,00020,M,047,M,,*7C
$GPGGA,115553.00,5130.4640,N,00011.0495,W,1,04,3.27,00020,M,047,M,,*72
$GPGGA,115554.00,5130.4632,N,00011.0499,W,1,04,3.27,00020,M,047,M,,*7C
$GPGGA,115555.00,5130.4624,N,00011.0503,W,1,04,3.27,00019,M,047,M,,*72
$GPGGA,115556.00,5130.4616,N,00011.0506,W,1,04,3.27,00019,M,047,M,,*75
$GPGGA,115557.00,5130.4609,N,00011.0510,W,1,04,3.27,00019,M,047,M,,*7D
$GPGGA,115558.00,5130.4601,N,00011.0514,W,1,04,3.27,00019,M,047,M,,*7E
$GPGGA,115559.00,5130.4593,N,00011.0517,W,1,04,3.27,00019,M,047,M,,*74
$GPGGA,115600.00,5130.4585,N,00011.0521,W,1,04,3.27,00019,M,047,M,,*79
$GPGGA,115601.00,5130.4578,N,00011.0525,W,1,04,3.27,00019,M,047,M,,*7E
$GPGGA,115602.00,5130.4571,N,00011.0528,W,1,04,3.27,00019,M,047,M,,*79
$GPGGA,115603.00,5130.4564,N,00011.0531,W,1,04,3.27,00019,M,047,M,,*74
$GPGGA,115604.00,5130.4556,N,00011.0534,W,1,04,3.27,00019,M,047,M,,*77
$GPGGA,115605.00,5130.4548,N,00011.0538,W,1,04,3.27,00019,M,047,M,,*75
$GPGGA,115606.00,5130.4541,N,00011.0541,W,1,04,3.28,00018,M,047,M,,*7F
$GPGGA,115607.00,5130.4533,N,00011.0545,W,1,04,3.28,00018,M,047,M,,*7F
$GPGGA,115608.00,5130.4526,N,00011.0549,W,1,03,3.54,00018,M,047,M,,*74
$GPGGA,115609.00,5130.4519,N,00011.0552,W,1,04,3.28,00018,M,047,M,,*7F
$GPGGA,115610.00,5130.4512,N,00011.0555,W,1,04,3.28,00018,M,047,M,,*7B
$GPGGA,115611.00,5130.4506,N,00011.0559,W,1,04,3.28,00018,M,047,M,,*73
$GPGGA,115612.00,5130.4500,N,00011.0562,W,1,04,3.28,00018,M,047,M,,*7E
$GPGGA,115613.00,5130.4494,N,00011.0565,W,1,04,3.28,00018,M,047,M,,*74
$GPGGA,115614.00,5130.4487,N,00011.0568,W,1,04,3.28,00018,M,047,M,,*7C
$GPGGA,115615.00,5130.4476,N,00011.0571,W,1,04,3.28,00018,M,047,M,,*7B
$GPGGA,115616.00,5130.4459,N,00011.0574,W,1,04,3.28,00018,M,047,M,,*70
$GPGGA,115617.00,5130.4448,N,00011.0577,W,1,04,3.28,00019,M,047,M,,*73
$GPGGA,115618.00,5130.4440,N,00011.0580,W,1,04,3.28,00019,M,047,M,,*7C
$GPGGA,115619.00,5130.4433,N,00011.0584,W,1,04,3.28,00019,M,047,M,,*7D
$GPGGA,115620.00,5130.4425,N,00011.0589,W,1,04,3.28,00019,M,047,M,,*7D
$GPGGA,115621.00,5130.4418,N,00011.0593,W,1,04,3.28,00020,M,047,M,,*73
$GPGGA,115622.00,5130.4411,N,00011.0596,W,1,04,3.28,00020,M,047,M,,*7C
$GPGGA,115623.00,5130.4404,N,00011.0599,W,1,04,3.28,00020,M,047,M,,*76
$GPGGA,115624.00,5130.4399,N,00011.0600,W,1,04,3.28,00020,M,047,M,,*71
$GPGGA,115611.00,5130.4394,N,00011.0599,W,1,04,3.28,00020,M,047,M,,*79
$GPGGA,115612.00,5130.4388,N,00011.0598,W,1,04,3.28,00020,M,047,M,,*76
$GPGGA,115613.00,5130.4378,N,00011.0612,W,1,04,3.28,00020,M,047,M,,*79
$GPGGA,115614.00,5130.4370,N,00011.0623,W,1,04,3.28,00020,M,047,M,,*74
$GPGGA,115615.00,5130.4365,N,00011.0623,W,1,04,3.28,00020,M,047,M,,*71
$GPGGA,115616.00,5130.4358,N,00011.0626,W,1,04,3.28,00020,M,047,M,,*79
$GPGGA,115617.00,5130.4352,N,00011.0627,W,1,04,3.28,00020,M,047,M,,*73
$GPGGA,115618.00,5130.4347,N,00011.0630,W,1,04,3.29,00020,M,047,M,,*7F
$GPGGA,115619.00,5130.4341,N,00011.0634,W,1,04,3.29,00020,M,047,M,,*7C
$GPGGA,115620.00,5130.4335,N,00011.0636,W,1,04,3.29,00020,M,047,M,,*77
$GPGGA,115621.00,5130.4329,N,00011.0641,W,1,04,3.29,00020,M,047,M,,*7B
$GPGGA,115622.00,5130.4321,N,00011.0645,W,1,04,3.29,00020,M,047,M,,*74
$GPGGA,115623.00,5130.4309,N,00011.0666,W,1,04,3.29,00020,M,047,M,,*7E
$GPGGA,115624.00,5130.4293,N,00011.0702,W,1,04,3.29,00020,M,047,M,,*78
$GPGGA,115625.00,5130.4282,N,00011.0720,W,1,04,3.29,00020,M,047,M,,*79
$GPGGA,115626.00,5130.4275,N,00011.0722,W,1,04,3.29,00020,M,047,M,,*70
$GPGGA,115627.00,5130.4268,N,00011.0725,W,1,04,3.29,00020,M,047,M,,*7A
$GPGGA,115628.00,5130.4261,N,00011.0728,W,1,04,3.29,00020,M,047,M,,*71
$GPGGA,115629.00,5130.4254,N,00011.0730,W,1,04,3.29,00020,M,047,M,,*7F
$GPGGA,115630.00,5130.4247,N,00011.0732,W,1,04,3.29,00020,M,047,M,,*77
$GPGGA,115631.00,5130.4239,N,00011.0735,W,1,04,3.29,00019,M,047,M,,*72
$GPGGA,115632.00,5130.4232,N,00011.0737,W,1,04,3.29,00019,M,047,M,,*78
$GPGGA,115633.00,5130.4225,N,00011.0738,W,1,04,3.29,00019,M,047,M,,*70
$GPGGA,115633.0,,,,,0,03,,,,,,,*78
$GPGGA,115635.00,5130.4211,N,00011.0743,W,1,04,3.29,00019,M,047,M,,*7D
$GPGGA,115636.00,5130.4204,N,00011.0745,W,1,04,3.29,00019,M,047,M,,*7C
$GPGGA,115637.00,5130.4196,N,00011.0749,W,1,04,3.29,00019,M,047,M,,*79
$GPGGA,115638.00,5130.4188,N,00011.0752,W,1,04,3.29,00019,M,047,M,,*73
$GPGGA,115639.00,5130.4181,N,00011.0755,W,1,04,3.30,00019,M,047,M,,*74
$GPGGA,115640.00,5130.4174,N,00011.0757,W,1,04,3.30,00019,M,047,M,,*72
$GPGGA,115641.00,5130.4167,N,00011.0760,W,1,04,3.30,00019,M,047,M,,*75
$GPGGA,115642.00,5130.4160,N,00011.0763,W,1,04,3.30,00019,M,047,M,,*72
$GPGGA,115643.00,5130.4153,N,00011.0766,W,1,04,3.30,00019,M,047,M,,*76
$GPGGA,115644.00,5130.4146,N,00011.0769,W,1,04,3.30,00019,M,047,M,,*7A
$GPGGA,115645.00,5130.4139,N,00011.0770,W,1,04,3.30,00019,M,047,M,,*7B
$GPGGA,115646.00,5130.4131,N,00011.0772,W,1,04,3.30,00019,M,047,M,,*72
$GPGGA,115647.00,5130.4124,N,00011.0773,W,1,04,3.30,00019,M,047,M,,*76
$GPGGA,115648.00,5130.4116,N,00011.0775,W,1,04,3.30,00019,M,047,M,,*7E
$GPGGA,115649.00,5130.4109,N,00011.0778,W,1,04,3.30,00019,M,047,M,,*7C
$GPGGA,115650.00,5130.4101,N,00011.0780,W,1,04,3.30,00019,M,047,M,,*7B
$GPGGA,115651.00,5130.4094,N,00011.0783,W,1,04,3.30,00020,M,047,M,,*7E
$GPGGA,115652.00,5130.4088,N,00011.0785,W,1,04,3.30,00020,M,047,M,,*76
$GPGGA,115653.00,5130.4081,N,00011.0786,W,1,04,3.30,00019,M,047,M,,*77
$GPGGA,115654.00,5130.4073,N,00011.0788,W,1,04,3.30,00019,M,047,M,,*73
$GPGGA,115655.00,5130.4066,N,00011.0789,W,1,04,3.30,00019,M,047,M,,*77
$GPGGA,115656.00,5130.4058,N,00011.0792,W,1,04,3.30,00019,M,047,M,,*73
$GPGGA,115657.00,5130.4050,N,00011.0795,W,1,04,3.30,00019,M,047,M,,*7D
$GPGGA,115658.00,5130.4043,N,00011.0797,W,1,04,3.30,00019,M,047,M,,*72
$GPGGA,115659.00,5130.4035,N,00011.0799,W,1,04,3.30,00019,M,047,M,,*7C
$GPGGA,115700.00,5130.4028,N,00011.0801,W,1,04,3.30,00019,M,047,M,,*73
$GPGGA,115701.00,5130.4020,N,00011.0803,W,1,04,3.30,00019,M,047,M,,*78
$GPGGA,115702.00,5130.4013,N,00011.0805,W,1,04,3.31,00020,M,047,M,,*76
$GPGGA,115703.00,5130.4006,N,00011.0808,W,1,04,3.31,00020,M,047,M,,*7E
$GPGGA,115704.00,5130.3998,N,00011.0811,W,1,04,3.31,00020,M,047,M,,*78
$GPGGA,115705.00,5130.3992,N,00011.0809,W,1,05,2.50,00020,M,047,M,,*7D
$GPGGA,115706.00,5130.3985,N,00011.0808,W,1,05,2.50,00020,M,047,M,,*79
$GPGGA,115707.00,5130.3979,N,00011.0808,W,1,05,2.50,00020,M,047,M,,*7B
$GPGGA,115708.00,5130.3972,N,00011.0807,W,1,05,2.50,00019,M,047,M,,*7A
$GPGGA,115709.00,5130.3966,N,00011.0807,W,1,05,2.50,00019,M,047,M,,*7E
$GPGGA,115710.00,5130.3959,N,00011.0808,W,1,05,2.50,00019,M,047,M,,*75
$GPGGA,115711.00,5130.3952,N,00011.0808,W,1,05,2.50,00019,M,047,M,,*7F
$GPGGA,115712.00,5130.3946,N,00011.0808,W,1,05,2.50,00019,M,047,M,,*79
$GPGGA,115713.00,5130.3939,N,00011.0809,W,1,05,2.50,00019,M,047,M,,*71
$GPGGA,115714.00,5130.3932,N,00011.0809,W,1,05,2.50,00019,M,047,M,,*7D
$GPGGA,115715.00,5130.3925,N,00011.0809,W,1,05,2.51,00019,M,047,M,,*7B
$GPGGA,115716.00,5130.3918,N,00011.0810,W,1,05,2.51,00019,M,047,M,,*7E
$GPGGA,115717.00,5130.3911,N,00011.0812,W,1,05,2.51,00019,M,047,M,,*74
$GPGGA,115718.00,5130.3904,N,00011.0814,W,1,05,2.51,00019,M,047,M,,*79
$GPGGA,115719.00,5130.3897,N,00011.0816,W,1,05,2.51,00019,M,047,M,,*71
$GPGGA,115720.00,5130.3890,N,00011.0818,W,1,05,2.51,00019,M,047,M,,*72
$GPGGA,115721.00,5130.3882,N,00011.0819,W,1,05,2.51,00019,M,047,M,,*71
$GPGGA,115722.00,5130.3875,N,00011.0821,W,1,05,2.51,00019,M,047,M,,*71
$GPGGA,115723.00,5130.3868,N,00011.0823,W,1,05,2.51,00019,M,047,M,,*7E
$GPGGA,115724.00,5130.3861,N,00011.0825,W,1,05,2.51,00019,M,047,M,,*76
$GPGGA,115725.00,5130.3854,N,00011.0827,W,1,05,2.51,00019,M,047,M,,*73
$GPGGA,115726.00,5130.3847,N,00011.0829,W,1,05,2.51,00019,M,047,M,,*7C
$GPGGA,115727.00,5130.3840,N,00011.0831,W,1,05,2.51,00019,M,047,M,,*73
$GPGGA,115728.00,5130.3833,N,00011.0834,W,1,05,2.51,00019,M,047,M,,*7D
$GPGGA,115729.00,5130.3825,N,00011.0837,W,1,06,2.11,00019,M,047,M,,*7F
$GPGGA,115730.00,5130.3817,N,00011.0839,W,1,06,2.11,00019,M,047,M,,*78
$GPGGA,115731.00,5130.3810,N,00011.0842,W,1,06,2.11,00019,M,047,M,,*72
$GPGGA,115732.00,5130.3802,N,00011.0843,W,1,06,2.11,00019,M,047,M,,*73
$GPGGA,115733.00,5130.3794,N,00011.0844,W,1,06,2.11,00019,M,047,M,,*75
$GPGGA,115734.00,5130.3786,N,00011.0846,W,1,06,2.11,00019,M,047,M,,*73
$GPGGA,115735.00,5130.3779,N,00011.0847,W,1,06,2.11,00019,M,047,M,,*73
$GPGGA,115736.00,5130.3771,N,00011.0851,W,1,05,2.69,00019,M,047,M,,*73
$GPGGA,115737.00,5130.3763,N,00011.0854,W,1,05,2.69,00019,M,047,M,,*74
$GPGGA,115738.00,5130.3755,N,00011.0856,W,1,05,2.69,00019,M,047,M,,*7C
$GPGGA,115739.00,5130.3747,N,00011.0857,W,1,06,2.11,00019,M,047,M,,*73
$GPGGA,115740.00,5130.3739,N,00011.0858,W,1,06,2.11,00019,M,047,M,,*7B
$GPGGA,115741.00,5130.3732,N,00011.0859,W,1,06,2.11,00019,M,047,M,,*70
$GPGGA,115742.00,5130.3724,N,00011.0860,W,1,06,2.11,00019,M,047,M,,*7E
$GPGGA,115743.00,5130.3716,N,00011.0862,W,1,06,2.12,00019,M,047,M,,*7F
$GPGGA,115744.00,5130.3708,N,00011.0865,W,1,05,2.69,00019,M,047,M,,*7F
$GPGGA,115745.00,5130.3701,N,00011.0867,W,1,06,2.12,00019,M,047,M,,*7A
$GPGGA,115746.00,5130.3693,N,00011.0869,W,1,06,2.12,00019,M,047,M,,*7D
$GPGGA,115747.00,5130.3686,N,00011.0872,W,1,06,2.12,00019,M,047,M,,*72
$GPGGA,115748.00,5130.3680,N,00011.0874,W,1,06,2.12,00019,M,047,M,,*7D
$GPGGA,115749.00,5130.3672,N,00011.0879,W,1,05,2.69,00019,M,047,M,,*73
$GPGGA,115750.00,5130.3665,N,00011.0882,W,1,06,2.12,00019,M,047,M,,*76
$GPGGA,115751.00,5130.3657,N,00011.0885,W,1,06,2.12,00019,M,047,M,,*71
$GPGGA,115752.00,5130.3650,N,00011.0888,W,1,06,2.12,00019,M,047,M,,*78
$GPGGA,115753.00,5130.3642,N,00011.0890,W,1,06,2.12,00019,M,047,M,,*73
$GPGGA,115754.00,5130.3634,N,00011.0893,W,1,06,2.12,00019,M,047,M,,*76
$GPGGA,115755.00,5130.3626,N,00011.0897,W,1,06,2.12,00019,M,047,M,,*70
$GPGGA,115756.00,5130.3618,N,00011.0900,W,1,06,2.12,00019,M,047,M,,*71
$GPGGA,115757.00,5130.3611,N,00011.0904,W,1,06,2.12,00019,M,047,M,,*7D
$GPGGA,115758.00,5130.3603,N,00011.0909,W,1,06,2.12,00019,M,047,M,,*7C
$GPGGA,115759.00,5130.3596,N,00011.0914,W,1,06,2.12,00019,M,047,M,,*7E
$GPGGA,115800.00,5130.3588,N,00011.0918,W,1,06,2.12,00019,M,047,M,,*7E
$GPGGA,115801.00,5130.3581,N,00011.0921,W,1,06,2.12,00019,M,047,M,,*7C
$GPGGA,115802.00,5130.3573,N,00011.0922,W,1,06,2.12,00019,M,047,M,,*71
$GPGGA,115803.00,5130.3564,N,00011.0924,W,1,05,2.70,00019,M,047,M,,*77
$GPGGA,115804.00,5130.3556,N,00011.0925,W,1,05,2.70,00019,M,047,M,,*70
$GPGGA,115805.00,5130.3549,N,00011.0923,W,1,06,2.12,00019,M,047,M,,*7E
$GPGGA,115806.00,5130.3541,N,00011.0920,W,1,06,2.12,00019,M,047,M,,*76
$GPGGA,115807.00,5130.3534,N,00011.0917,W,1,06,2.12,00019,M,047,M,,*71
$GPGGA,115808.00,5130.3527,N,00011.0913,W,1,06,2.12,00019,M,047,M,,*78
$GPGGA,115809.00,5130.3520,N,00011.0909,W,1,06,2.12,00019,M,047,M,,*75
$GPGGA,115810.00,5130.3513,N,00011.0906,W,1,06,2.12,00019,M,047,M,,*72
$GPGGA,115811.00,5130.3505,N,00011.0902,W,1,06,2.12,00019,M,047,M,,*70
$GPGGA,115812.00,5130.3498,N,00011.0899,W,1,06,2.12,00019,M,047,M,,*75
$GPGGA,115813.00,5130.3490,N,00011.0896,W,1,06,2.12,00019,M,047,M,,*73
$GPGGA,115814.00,5130.3483,N,00011.0893,W,1,06,2.12,00019,M,047,M,,*73
$GPGGA,115815.00,5130.3476,N,00011.0891,W,1,06,2.12,00019,M,047,M,,*7A
$GPGGA,115816.00,5130.3469,N,00011.0888,W,1,06,2.12,00019,M,047,M,,*7F
$GPGGA,115817.00,5130.3462,N,00011.0886,W,1,06,2.12,00019,M,047,M,,*7B
$GPGGA,115818.00,5130.3455,N,00011.0884,W,1,06,2.12,00019,M,047,M,,*72
$GPGGA,115819.00,5130.3447,N,00011.0884,W,1,05,2.70,00019,M,047,M,,*77
$GPGGA,115820.00,5130.3439,N,00011.0884,W,1,05,2.70,00019,M,047,M,,*74
$GPGGA,115821.00,5130.3431,N,00011.0885,W,1,05,2.70,00019,M,047,M,,*7C
$GPGGA,115822.00,5130.3423,N,00011.0885,W,1,05,2.70,00019,M,047,M,,*7C
$GPGGA,115823.00,5130.3416,N,00011.0885,W,1,05,2.70,00019,M,047,M,,*7B
$GPGGA,115824.00,5130.3408,N,00011.0882,W,1,06,2.13,00019,M,047,M,,*72
$GPGGA,115825.00,5130.3401,N,00011.0881,W,1,05,2.70,00019,M,047,M,,*7F
$GPGGA,115826.00,5130.3394,N,00011.0879,W,1,05,2.70,00019,M,047,M,,*70
$GPGGA,115827.00,5130.3387,N,00011.0876,W,1,05,2.70,00019,M,047,M,,*7C
$GPGGA,115828.00,5130.3379,N,00011.0875,W,1,05,2.70,00019,M,047,M,,*71
$GPGGA,115829.00,5130.3372,N,00011.0873,W,1,05,2.70,00019,M,047,M,,*7D
$GPGGA,115830.00,5130.3365,N,00011.0871,W,1,05,2.71,00019,M,047,M,,*70
$GPGGA,115831.00,5130.3358,N,00011.0868,W,1,05,2.71,00019,M,047,M,,*77
$GPGGA,115832.00,5130.3351,N,00011.0864,W,1,06,2.13,00020,M,047,M,,*7C
$GPGGA,115833.00,5130.3345,N,00011.0861,W,1,06,2.13,00020,M,047,M,,*7D
$GPGGA,115834.00,5130.3338,N,00011.0856,W,1,06,2.13,00020,M,047,M,,*74
$GPGGA,115835.00,5130.3330,N,00011.0853,W,1,07,1.53,00020,M,047,M,,*7E
$GPGGA,115836.00,5130.3322,N,00011.0851,W,1,06,1.64,00020,M,047,M,,*79
$GPGGA,115837.00,5130.3314,N,00011.0850,W,1,06,1.64,00020,M,047,M,,*7C
$GPGGA,115838.00,5130.3307,N,00011.0849,W,1,06,1.64,00020,M,047,M,,*79
$GPGGA,115839.00,5130.3299,N,00011.0847,W,1,06,1.64,00020,M,047,M,,*70
$GPGGA,115840.00,5130.3291,N,00011.0846,W,1,06,1.64,00020,M,047,M,,*77
$GPGGA,115841.00,5130.3284,N,00011.0844,W,1,06,1.64,00020,M,047,M,,*70
$GPGGA,115842.00,5130.3276,N,00011.0842,W,1,06,1.64,00020,M,047,M,,*78
$GPGGA,115843.00,5130.3268,N,00011.0841,W,1,06,1.64,00020,M,047,M,,*75
$GPGGA,115844.00,5130.3261,N,00011.0839,W,1,06,1.64,00020,M,047,M,,*74
$GPGGA,115845.00,5130.3253,N,00011.0837,W,1,06,1.64,00020,M,047,M,,*7A
$GPGGA,115846.00,5130.3245,N,00011.0834,W,1,06,1.64,00020,M,047,M,,*7D
$GPGGA,115847.00,5130.3238,N,00011.0833,W,1,06,1.64,00020,M,047,M,,*71
$GPGGA,115848.00,5130.3230,N,00011.0831,W,1,06,1.64,00020,M,047,M,,*74
$GPGGA,115849.00,5130.3223,N,00011.0829,W,1,06,1.64,00020,M,047,M,,*7E
$GPGGA,115850.00,5130.3215,N,00011.0825,W,1,06,1.64,00020,M,047,M,,*7F
$GPGGA,115851.00,5130.3208,N,00011.0820,W,1,06,1.64,00020,M,047,M,,*77
$GPGGA,115852.00,5130.3201,N,00011.0815,W,1,06,1.64,00020,M,047,M,,*7B
$GPGGA,115853.00,5130.3193,N,00011.0808,W,1,06,2.08,00021,M,047,M,,*76
$GPGGA,115854.00,5130.3187,N,00011.0800,W,1,07,1.53,00021,M,047,M,,*70
$GPGGA,115855.00,5130.3181,N,00011.0793,W,1,06,1.64,00021,M,047,M,,*77
$GPGGA,115856.00,5130.3176,N,00011.0784,W,1,06,2.08,00021,M,047,M,,*73
$GPGGA,115857.00,5130.3170,N,00011.0774,W,1,06,2.08,00021,M,047,M,,*7B
$GPGGA,115858.00,5130.3164,N,00011.0764,W,1,06,2.08,00021,M,047,M,,*70
$GPGGA,115859.00,5130.3159,N,00011.0755,W,1,06,2.08,00021,M,047,M,,*7D
$GPGGA,115900.00,5130.3153,N,00011.0745,W,1,06,2.08,00021,M,047,M,,*7B
$GPGGA,115901.00,5130.3148,N,00011.0736,W,1,06,2.08,00021,M,047,M,,*74
$GPGGA,115902.00,5130.3143,N,00011.0727,W,1,06,2.08,00021,M,047,M,,*7C
$GPGGA,115903.00,5130.3138,N,00011.0717,W,1,06,2.08,00022,M,047,M,,*71
$GPGGA,115904.00,5130.3133,N,00011.0708,W,1,06,2.07,00022,M,047,M,,*7C
$GPGGA,115905.00,5130.3128,N,00011.0698,W,1,06,2.08,00022,M,047,M,,*70
$GPGGA,115906.00,5130.3123,N,00011.0690,W,1,06,2.07,00022,M,047,M,,*7F
$GPGGA,115907.00,5130.3117,N,00011.0681,W,1,06,2.07,00022,M,047,M,,*79
$GPGGA,115908.00,5130.3112,N,00011.0672,W,1,06,2.07,00022,M,047,M,,*7F
$GPGGA,115909.00,5130.3106,N,00011.0662,W,1,06,2.07,00022,M,047,M,,*7A
$GPGGA,115910.00,5130.3101,N,00011.0653,W,1,06,2.07,00023,M,047,M,,*76
$GPGGA,115911.00,5130.3096,N,00011.0644,W,1,06,2.07,00023,M,047,M,,*7E
$GPGGA,115912.00,5130.3091,N,00011.0635,W,1,06,2.07,00023,M,047,M,,*7C
$GPGGA,115913.00,5130.3087,N,00011.0626,W,1,06,2.07,00023,M,047,M,,*78
$GPGGA,115914.00,5130.3082,N,00011.0617,W,1,06,2.07,00023,M,047,M,,*78
$GPGGA,115915.00,5130.3078,N,00011.0608,W,1,06,2.07,00023,M,047,M,,*72
$GPGGA,115916.00,5130.3075,N,00011.0599,W,1,06,2.07,00023,M,047,M,,*77
$GPGGA,115917.00,5130.3071,N,00011.0589,W,1,06,2.07,00023,M,047,M,,*73
$GPGGA,115918.00,5130.3068,N,00011.0579,W,1,07,1.53,00023,M,047,M,,*78
$GPGGA,115919.00,5130.3066,N,00011.0570,W,1,06,2.07,00023,M,047,M,,*7D
$GPGGA,115920.00,5130.3064,N,00011.0560,W,1,06,2.07,00023,M,047,M,,*74
$GPGGA,115921.00,5130.3062,N,00011.0549,W,1,07,1.53,00023,M,047,M,,*7B
$GPGGA,115922.00,5130.3060,N,00011.0538,W,1,06,2.07,00023,M,047,M,,*7F
$GPGGA,115923.00,5130.3059,N,00011.0530,W,1,07,1.53,00023,M,047,M,,*7F
$GPGGA,115924.00,5130.3058,N,00011.0521,W,1,06,2.07,00023,M,047,M,,*7A
$GPGGA,115925.00,5130.3057,N,00011.0512,W,1,06,2.07,00023,M,047,M,,*74
$GPGGA,115926.00,5130.3055,N,00011.0501,W,1,06,2.07,00023,M,047,M,,*77
$GPGGA,115927.00,5130.3052,N,00011.0490,W,1,07,1.53,00022,M,047,M,,*7A
$GPGGA,115928.00,5130.3050,N,00011.0480,W,1,07,1.53,00022,M,047,M,,*76
$GPGGA,115929.00,5130.3048,N,00011.0471,W,1,07,1.53,00022,M,047,M,,*70
$GPGGA,115930.00,5130.3047,N,00011.0459,W,1,07,1.53,00022,M,047,M,,*7D
$GPGGA,115931.00,5130.3045,N,00011.0447,W,1,06,2.07,00022,M,047,M,,*72
$GPGGA,115932.00,5130.3044,N,00011.0433,W,1,06,2.07,00022,M,047,M,,*73
$GPGGA,115933.00,5130.3043,N,00011.0421,W,1,07,1.53,00022,M,047,M,,*75
$GPGGA,115934.00,5130.3043,N,00011.0408,W,1,06,1.64,00022,M,047,M,,*7C
$GPGGA,115935.00,5130.3045,N,00011.0396,W,1,06,1.64,00021,M,047,M,,*78
$GPGGA,115936.00,5130.3046,N,00011.0383,W,1,06,1.25,00021,M,047,M,,*79
$GPGGA,115937.00,5130.3045,N,00011.0370,W,1,07,1.17,00021,M,047,M,,*77
$GPGGA,115938.00,5130.3044,N,00011.0357,W,1,07,1.17,00021,M,047,M,,*7C
$GPGGA,115939.00,5130.3043,N,00011.0343,W,1,06,2.81,00021,M,047,M,,*72
$GPGGA,115940.00,5130.3043,N,00011.0330,W,1,07,1.17,00021,M,047,M,,*75
$GPGGA,115941.00,5130.3043,N,00011.0317,W,1,07,1.17,00021,M,047,M,,*71
$GPGGA,115942.00,5130.3043,N,00011.0304,W,1,06,2.81,00021,M,047,M,,*7D
$GPGGA,115943.00,5130.3043,N,00011.0290,W,1,06,2.81,00020,M,047,M,,*71
$GPGGA,115944.00,5130.3042,N,00011.0277,W,1,06,2.81,00020,M,047,M,,*7E
$GPGGA,115945.00,5130.3042,N,00011.0264,W,1,07,1.17,00020,M,047,M,,*70
$GPGGA,115946.00,5130.3040,N,00011.0251,W,1,06,2.81,00020,M,047,M,,*7A
$GPGGA,115947.00,5130.3039,N,00011.0239,W,1,07,1.17,00020,M,047,M,,*76
$GPGGA,115948.00,5130.3039,N,00011.0227,W,1,08,1.05,00020,M,047,M,,*7A
$GPGGA,115949.00,5130.3039,N,00011.0214,W,1,07,1.17,00020,M,047,M,,*77
$GPGGA,115950.00,5130.3039,N,00011.0201,W,1,07,1.17,00020,M,047,M,,*7B
$GPGGA,115951.00,5130.3038,N,00011.0188,W,1,07,1.17,00020,M,047,M,,*79
$GPGGA,115952.00,5130.3039,N,00011.0176,W,1,06,2.81,00020,M,047,M,,*77
$GPGGA,115953.00,5130.3039,N,00011.0163,W,1,06,2.81,00020,M,047,M,,*72
$GPGGA,115954.00,5130.3039,N,00011.0150,W,1,06,2.81,00020,M,047,M,,*75
$GPGGA,115955.00,5130.3039,N,00011.0137,W,1,06,2.81,00019,M,047,M,,*7F
$GPGGA,115956.00,5130.3040,N,00011.0125,W,1,06,2.81,00019,M,047,M,,*71
$GPGGA,115957.00,5130.3042,N,00011.0114,W,1,07,1.34,00019,M,047,M,,*7C
$GPGGA,115958.00,5130.3044,N,00011.0102,W,1,07,1.34,00019,M,047,M,,*72
$GPGGA,115959.00,5130.3047,N,00011.0091,W,1,07,1.34,00019,M,047,M,,*7B
$GPGGA,120000.00,5130.3049,N,00011.0079,W,1,06,2.81,00019,M,047,M,,*7C
$GPGGA,120001.00,5130.3052,N,00011.0066,W,1,06,2.81,00019,M,047,M,,*79
$GPGGA,120002.00,5130.3055,N,00011.0054,W,1,07,1.34,00019,M,047,M,,*70
$GPGGA,120003.00,5130.3059,N,00011.0042,W,1,07,1.34,00019,M,047,M,,*7A
$GPGGA,120004.00,5130.3062,N,00011.0031,W,1,07,1.34,00019,M,047,M,,*71
$GPGGA,120005.00,5130.3062,N,00011.0018,W,1,07,1.77,00019,M,047,M,,*7C
$GPGGA,120006.00,5130.3063,N,00011.0004,W,1,07,1.77,00019,M,047,M,,*73
$GPGGA,120007.00,5130.3064,N,00010.9993,W,1,08,1.04,00019,M,047,M,,*71
$GPGGA,120008.00,5130.3066,N,00010.9980,W,1,07,1.77,00019,M,047,M,,*75
$GPGGA,120009.00,5130.3067,N,00010.9966,W,1,07,1.77,00019,M,047,M,,*7D
$GPGGA,120010.00,5130.3068,N,00010.9953,W,1,07,1.77,00019,M,047,M,,*7C
$GPGGA,120011.00,5130.3070,N,00010.9939,W,1,07,1.77,00019,M,047,M,,*78
$GPGGA,120012.00,5130.3072,N,00010.9928,W,1,08,1.04,00019,M,047,M,,*72
$GPGGA,120013.00,5130.3074,N,00010.9917,W,1,08,1.04,00019,M,047,M,,*79
$GPGGA,120014.00,5130.3076,N,00010.9906,W,1,08,1.04,00019,M,047,M,,*7C
$GPGGA,120015.00,5130.3076,N,00010.9893,W,1,07,1.77,00019,M,047,M,,*7B
$GPGGA,120016.00,5130.3077,N,00010.9882,W,1,08,1.04,00019,M,047,M,,*72
$GPGGA,120017.00,5130.3078,N,00010.9868,W,1,07,1.77,00019,M,047,M,,*73
$GPGGA,120018.00,5130.3079,N,00010.9855,W,1,07,1.77,00019,M,047,M,,*73
$GPGGA,120019.00,5130.3080,N,00010.9842,W,1,07,1.77,00019,M,047,M,,*72
$GPGGA,120020.00,5130.3081,N,00010.9830,W,1,07,1.77,00019,M,047,M,,*7C
$GPGGA,120021.00,5130.3083,N,00010.9820,W,1,08,1.04,00019,M,047,M,,*75
$GPGGA,120022.00,5130.3086,N,00010.9809,W,1,08,1.04,00019,M,047,M,,*78
$GPGGA,120023.00,5130.3087,N,00010.9795,W,1,07,1.77,00019,M,047,M,,*79
$GPGGA,120024.00,5130.3089,N,00010.9782,W,1,07,1.77,00019,M,047,M,,*76
$GPGGA,120025.00,5130.3090,N,00010.9769,W,1,07,1.77,00019,M,047,M,,*7A
$GPGGA,120026.00,5130.3092,N,00010.9759,W,1,08,1.04,00019,M,047,M,,*73
$GPGGA,120027.00,5130.3095,N,00010.9748,W,1,08,1.04,00020,M,047,M,,*7F
$GPGGA,120028.00,5130.3097,N,00010.9737,W,1,08,1.04,00020,M,047,M,,*7A
$GPGGA,120029.00,5130.3099,N,00010.9726,W,1,08,1.04,00020,M,047,M,,*75
$GPGGA,120030.00,5130.3100,N,00010.9715,W,1,08,1.04,00020,M,047,M,,*7C
$GPGGA,120031.00,5130.3101,N,00010.9702,W,1,07,1.77,00020,M,047,M,,*71
$GPGGA,120032.00,5130.3102,N,00010.9689,W,1,07,1.77,00020,M,047,M,,*73
$GPGGA,120033.00,5130.3104,N,00010.9679,W,1,08,1.04,00020,M,047,M,,*70
$GPGGA,120034.00,5130.3105,N,00010.9668,W,1,08,1.04,00020,M,047,M,,*76
$GPGGA,120035.00,5130.3107,N,00010.9657,W,1,08,1.04,00020,M,047,M,,*79
$GPGGA,120036.00,5130.3109,N,00010.9646,W,1,08,1.04,00020,M,047,M,,*74
$GPGGA,120037.00,5130.3112,N,00010.9635,W,1,08,1.04,00020,M,047,M,,*7B
$GPGGA,120038.00,5130.3114,N,00010.9624,W,1,08,1.04,00020,M,047,M,,*72
$GPGGA,120039.00,5130.3116,N,00010.9613,W,1,08,1.04,00020,M,047,M,,*75
$GPGGA,120040.00,5130.3118,N,00010.9602,W,1,07,1.11,00020,M,047,M,,*7E
$GPGGA,120041.00,5130.3120,N,00010.9591,W,1,07,1.11,00020,M,047,M,,*7D
$GPGGA,120042.00,5130.3123,N,00010.9581,W,1,07,1.11,00020,M,047,M,,*7C
$GPGGA,120043.00,5130.3126,N,00010.9570,W,1,08,1.04,00020,M,047,M,,*7D
$GPGGA,120044.00,5130.3129,N,00010.9559,W,1,08,1.04,00020,M,047,M,,*7E
$GPGGA,120045.00,5130.3131,N,00010.9548,W,1,08,1.04,00020,M,047,M,,*76
$GPGGA,120046.00,5130.3134,N,00010.9537,W,1,07,1.11,00020,M,047,M,,*73
$GPGGA,120047.00,5130.3135,N,00010.9524,W,1,06,1.89,00020,M,047,M,,*71
$GPGGA,120048.00,5130.3136,N,00010.9513,W,1,08,1.04,00020,M,047,M,,*72
$GPGGA,120049.00,5130.3137,N,00010.9498,W,1,07,1.77,00020,M,047,M,,*7B
$GPGGA,120050.00,5130.3139,N,00010.9484,W,1,07,1.77,00020,M,047,M,,*70
$GPGGA,120051.00,5130.3140,N,00010.9470,W,1,07,1.77,00020,M,047,M,,*74
$GPGGA,120052.00,5130.3143,N,00010.9459,W,1,08,1.04,00020,M,047,M,,*74
$GPGGA,120053.00,5130.3146,N,00010.9447,W,1,08,1.02,00020,M,047,M,,*79
$GPGGA,120054.00,5130.3148,N,00010.9436,W,1,09,0.88,00020,M,047,M,,*74
$GPGGA,120055.00,5130.3151,N,00010.9424,W,1,08,1.02,00020,M,047,M,,*7C
$GPGGA,120056.00,5130.3155,N,00010.9413,W,1,09,0.88,00020,M,047,M,,*7D
$GPGGA,120057.00,5130.3159,N,00010.9403,W,1,09,0.88,00020,M,047,M,,*71
$GPGGA,120058.00,5130.3163,N,00010.9392,W,1,08,1.04,00020,M,047,M,,*7C
$GPGGA,120059.00,5130.3168,N,00010.9382,W,1,08,1.04,00020,M,047,M,,*77
$GPGGA,120100.00,5130.3172,N,00010.9373,W,1,08,1.04,00020,M,047,M,,*7F
$GPGGA,120101.00,5130.3177,N,00010.9363,W,1,08,1.04,00020,M,047,M,,*7A
$GPGGA,120102.00,5130.3182,N,00010.9351,W,1,07,1.77,00020,M,047,M,,*79
$GPGGA,120103.00,5130.3186,N,00010.9340,W,1,07,1.77,00020,M,047,M,,*7C
$GPGGA,120104.00,5130.3191,N,00010.9329,W,1,07,1.77,00020,M,047,M,,*72
$GPGGA,120105.00,5130.3195,N,00010.9318,W,1,07,1.77,00020,M,047,M,,*75
$GPGGA,120106.00,5130.3200,N,00010.9310,W,1,08,1.04,00020,M,047,M,,*7A
$GPGGA,120107.00,5130.3205,N,00010.9299,W,1,07,1.77,00020,M,047,M,,*75
$GPGGA,120108.00,5130.3210,N,00010.9289,W,1,07,1.77,00020,M,047,M,,*7F
$GPGGA,120109.00,5130.3214,N,00010.9277,W,1,07,1.77,00020,M,047,M,,*7B
$GPGGA,120110.00,5130.3219,N,00010.9266,W,1,07,1.77,00020,M,047,M,,*7E
$GPGGA,120111.00,5130.3224,N,00010.9255,W,1,07,1.77,00021,M,047,M,,*70
$GPGGA,120112.00,5130.3228,N,00010.9244,W,1,07,1.77,00021,M,047,M,,*7F
$GPGGA,120113.00,5130.3233,N,00010.9233,W,1,07,1.77,00021,M,047,M,,*74
$GPGGA,120114.00,5130.3238,N,00010.9223,W,1,07,1.77,00021,M,047,M,,*79
$GPGGA,120115.00,5130.3243,N,00010.9213,W,1,07,1.77,00021,M,047,M,,*77
$GPGGA,120116.00,5130.3248,N,00010.9203,W,1,07,1.77,00021,M,047,M,,*7E
$GPGGA,120117.00,5130.3254,N,00010.9195,W,1,08,1.02,00021,M,047,M,,*73
$GPGGA,120118.00,5130.3260,N,00010.9188,W,1,08,1.02,00021,M,047,M,,*77
$GPGGA,120119.00,5130.3265,N,00010.9179,W,1,07,1.77,00021,M,047,M,,*70
$GPGGA,120120.00,5130.3270,N,00010.9169,W,1,07,1.77,00021,M,047,M,,*7F
$GPGGA,120121.00,5130.3276,N,00010.9159,W,1,06,2.20,00021,M,047,M,,*7B
$GPGGA,120122.00,5130.3281,N,00010.9149,W,1,07,1.77,00021,M,047,M,,*71
$GPGGA,120123.00,5130.3287,N,00010.9143,W,1,06,1.19,00021,M,047,M,,*75
$GPGGA,120124.00,5130.3294,N,00010.9138,W,1,06,1.19,00021,M,047,M,,*7C
$GPGGA,120125.00,5130.3301,N,00010.9133,W,1,05,1.28,00021,M,047,M,,*7A
$GPGGA,120126.00,5130.3307,N,00010.9128,W,1,08,0.96,00021,M,047,M,,*7C
$GPGGA,120127.00,5130.3314,N,00010.9123,W,1,07,1.11,00022,M,047,M,,*76
$GPGGA,120128.00,5130.3321,N,00010.9116,W,1,07,1.11,00022,M,047,M,,*79
$GPGGA,120129.00,5130.3327,N,00010.9109,W,1,06,1.19,00022,M,047,M,,*79
$GPGGA,120130.00,5130.3333,N,00010.9102,W,1,06,1.19,00022,M,047,M,,*7F
$GPGGA,120131.00,5130.3339,N,00010.9095,W,1,07,1.14,00022,M,047,M,,*77
$GPGGA,120132.00,5130.3345,N,00010.9088,W,1,07,1.14,00022,M,047,M,,*73
$GPGGA,120133.00,5130.3350,N,00010.9081,W,1,07,1.11,00022,M,047,M,,*7A
$GPGGA,120134.00,5130.3357,N,00010.9075,W,1,07,1.14,00022,M,047,M,,*74
$GPGGA,120135.00,5130.3364,N,00010.9069,W,1,06,1.19,00022,M,047,M,,*74
$GPGGA,120136.00,5130.3371,N,00010.9064,W,1,07,1.14,00022,M,047,M,,*72
$GPGGA,120137.00,5130.3378,N,00010.9058,W,1,07,1.14,00022,M,047,M,,*75
$GPGGA,120138.00,5130.3385,N,00010.9053,W,1,07,1.14,00021,M,047,M,,*70
$GPGGA,120139.00,5130.3392,N,00010.9048,W,1,07,1.14,00021,M,047,M,,*7D
$GPGGA,120140.00,5130.3399,N,00010.9044,W,1,07,1.14,00021,M,047,M,,*74
$GPGGA,120141.00,5130.3406,N,00010.9039,W,1,07,1.14,00021,M,047,M,,*7E
$GPGGA,120142.00,5130.3413,N,00010.9035,W,1,07,1.14,00021,M,047,M,,*75
$GPGGA,120143.00,5130.3420,N,00010.9032,W,1,07,1.14,00021,M,047,M,,*73
$GPGGA,120144.00,5130.3428,N,00010.9030,W,1,07,1.14,00021,M,047,M,,*7E
$GPGGA,120145.00,5130.3435,N,00010.9028,W,1,07,1.14,00021,M,047,M,,*7A
$GPGGA,120146.00,5130.3442,N,00010.9026,W,1,07,1.14,00021,M,047,M,,*77
$GPGGA,120147.00,5130.3449,N,00010.9023,W,1,07,1.14,00021,M,047,M,,*78
$GPGGA,120148.00,5130.3457,N,00010.9021,W,1,07,1.14,00021,M,047,M,,*7A
$GPGGA,120149.00,5130.3464,N,00010.9018,W,1,07,1.14,00021,M,047,M,,*71
$GPGGA,120150.00,5130.3471,N,00010.9015,W,1,07,1.14,00021,M,047,M,,*70
$GPGGA,120151.00,5130.3478,N,00010.9011,W,1,07,1.14,00021,M,047,M,,*7C
$GPGGA,120152.00,5130.3486,N,00010.9008,W,1,07,1.14,00021,M,047,M,,*76
$GPGGA,120153.00,5130.3494,N,00010.9006,W,1,07,1.14,00021,M,047,M,,*7A
$GPGGA,120154.00,5130.3501,N,00010.9005,W,1,06,1.19,00021,M,047,M,,*7F
$GPGGA,120155.00,5130.3509,N,00010.9004,W,1,06,1.19,00021,M,047,M,,*77
$GPGGA,120156.00,5130.3516,N,00010.9004,W,1,06,1.19,00021,M,047,M,,*7A
$GPGGA,120157.00,5130.3524,N,00010.9006,W,1,07,1.03,00021,M,047,M,,*72
$GPGGA,120158.00,5130.3531,N,00010.9008,W,1,07,1.03,00021,M,047,M,,*77
$GPGGA,120159.00,5130.3539,N,00010.9010,W,1,07,1.03,00021,M,047,M,,*77
$GPGGA,120200.00,5130.3546,N,00010.9012,W,1,07,1.03,00021,M,047,M,,*72
$GPGGA,120201.00,5130.3553,N,00010.9014,W,1,07,1.03,00021,M,047,M,,*71
$GPGGA,120202.00,5130.3561,N,00010.9017,W,1,07,1.03,00021,M,047,M,,*70
$GPGGA,120203.00,5130.3568,N,00010.9020,W,1,06,1.08,00021,M,047,M,,*76
$GPGGA,120204.00,5130.3575,N,00010.9023,W,1,07,1.03,00021,M,047,M,,*74
$GPGGA,120205.00,5130.3583,N,00010.9025,W,1,07,1.03,00021,M,047,M,,*7A
$GPGGA,120206.00,5130.3590,N,00010.9028,W,1,07,1.03,00021,M,047,M,,*76
$GPGGA,120207.00,5130.3597,N,00010.9032,W,1,07,1.03,00021,M,047,M,,*7B
$GPGGA,120208.00,5130.3604,N,00010.9035,W,1,08,0.97,00021,M,047,M,,*79
$GPGGA,120209.00,5130.3611,N,00010.9039,W,1,08,0.97,00021,M,047,M,,*70
$GPGGA,120210.00,5130.3618,N,00010.9042,W,1,07,0.99,00021,M,047,M,,*7C
$GPGGA,120211.00,5130.3625,N,00010.9046,W,1,08,0.97,00021,M,047,M,,*76
$GPGGA,120212.00,5130.3632,N,00010.9049,W,1,08,0.97,00021,M,047,M,,*7C
$GPGGA,120213.00,5130.3640,N,00010.9052,W,1,07,1.03,00021,M,047,M,,*71
$GPGGA,120214.00,5130.3647,N,00010.9056,W,1,07,1.03,00021,M,047,M,,*75
$GPGGA,120215.00,5130.3654,N,00010.9060,W,1,07,1.03,00021,M,047,M,,*73
$GPGGA,120216.00,5130.3661,N,00010.9064,W,1,06,1.08,00021,M,047,M,,*78
$GPGGA,120217.00,5130.3668,N,00010.9068,W,1,07,1.03,00021,M,047,M,,*76
$GPGGA,120218.00,5130.3675,N,00010.9072,W,1,06,1.08,00022,M,047,M,,*77
$GPGGA,120219.00,5130.3683,N,00010.9075,W,1,07,0.99,00022,M,047,M,,*70
$GPGGA,120220.00,5130.3690,N,00010.9077,W,1,08,0.97,00022,M,047,M,,*7B
$GPGGA,120221.00,5130.3698,N,00010.9079,W,1,08,0.97,00022,M,047,M,,*7C
$GPGGA,120222.00,5130.3704,N,00010.9083,W,1,07,0.99,00022,M,047,M,,*7F
$GPGGA,120223.00,5130.3711,N,00010.9087,W,1,08,0.97,00022,M,047,M,,*7F
$GPGGA,120224.00,5130.3718,N,00010.9090,W,1,08,0.97,00022,M,047,M,,*77
$GPGGA,120225.00,5130.3725,N,00010.9095,W,1,07,0.99,00022,M,047,M,,*7C
$GPGGA,120226.00,5130.3732,N,00010.9099,W,1,08,0.97,00022,M,047,M,,*74
$GPGGA,120227.00,5130.3739,N,00010.9102,W,1,08,0.97,00022,M,047,M,,*7D
$GPGGA,120228.00,5130.3746,N,00010.9105,W,1,07,0.99,00022,M,047,M,,*7C
$GPGGA,120229.00,5130.3753,N,00010.9109,W,1,08,0.97,00022,M,047,M,,*74
$GPGGA,120230.00,5130.3760,N,00010.9112,W,1,07,0.99,00022,M,047,M,,*77
$GPGGA,120231.00,5130.3767,N,00010.9117,W,1,07,0.99,00022,M,047,M,,*74
$GPGGA,120232.00,5130.3775,N,00010.9120,W,1,07,0.99,00022,M,047,M,,*70
$GPGGA,120233.00,5130.3782,N,00010.9124,W,1,07,0.99,00022,M,047,M,,*7D
$GPGGA,120234.00,5130.3789,N,00010.9128,W,1,08,0.97,00022,M,047,M,,*7C
$GPGGA,120235.00,5130.3796,N,00010.9132,W,1,07,0.99,00022,M,047,M,,*79
$GPGGA,120236.00,5130.3803,N,00010.9134,W,1,08,0.97,00022,M,047,M,,*7E
$GPGGA,120237.00,5130.3811,N,00010.9135,W,1,07,1.14,00022,M,047,M,,*78
$GPGGA,120238.00,5130.3817,N,00010.9133,W,1,07,1.14,00022,M,047,M,,*77
$GPGGA,120239.00,5130.3822,N,00010.9125,W,1,07,1.77,00022,M,047,M,,*72
$GPGGA,120240.00,5130.3826,N,00010.9115,W,1,08,1.04,00022,M,047,M,,*70
$GPGGA,120241.00,5130.3829,N,00010.9102,W,1,08,1.04,00022,M,047,M,,*78
$GPGGA,120242.00,5130.3831,N,00010.9089,W,1,08,1.04,00022,M,047,M,,*70
$GPGGA,120243.00,5130.3833,N,00010.9077,W,1,07,1.13,00022,M,047,M,,*7B
$GPGGA,120244.00,5130.3835,N,00010.9064,W,1,08,1.03,00022,M,047,M,,*76
$GPGGA,120245.00,5130.3837,N,00010.9052,W,1,08,1.03,00022,M,047,M,,*70
$GPGGA,120246.00,5130.3839,N,00010.9039,W,1,06,1.90,00022,M,047,M,,*74
$GPGGA,120247.00,5130.3841,N,00010.9027,W,1,06,1.90,00022,M,047,M,,*75
$GPGGA,120248.00,5130.3843,N,00010.9014,W,1,07,1.77,00022,M,047,M,,*70
$GPGGA,120249.00,5130.3845,N,00010.9002,W,1,08,1.03,00022,M,047,M,,*7C
$GPGGA,120250.00,5130.3847,N,00010.8989,W,1,07,1.77,00022,M,047,M,,*71
$GPGGA,120251.00,5130.3848,N,00010.8976,W,1,07,1.77,00022,M,047,M,,*7F
$GPGGA,120252.00,5130.3850,N,00010.8963,W,1,07,1.77,00022,M,047,M,,*71
$GPGGA,120253.00,5130.3851,N,00010.8950,W,1,07,1.77,00023,M,047,M,,*70
$GPGGA,120254.00,5130.3853,N,00010.8936,W,1,07,1.77,00023,M,047,M,,*75
$GPGGA,120255.00,5130.3855,N,00010.8923,W,1,07,1.77,00023,M,047,M,,*76
$GPGGA,120256.00,5130.3857,N,00010.8910,W,1,07,1.77,00023,M,047,M,,*77
$GPGGA,120257.00,5130.3859,N,00010.8897,W,1,07,1.77,00023,M,047,M,,*76
$GPGGA,120258.00,5130.3862,N,00010.8885,W,1,07,1.77,00023,M,047,M,,*72
$GPGGA,120259.00,5130.3864,N,00010.8872,W,1,07,1.77,00023,M,047,M,,*7D
$GPGGA,120300.00,5130.3865,N,00010.8860,W,1,07,1.77,00023,M,047,M,,*72
$GPGGA,120301.00,5130.3867,N,00010.8847,W,1,07,1.77,00023,M,047,M,,*74
$GPGGA,120302.00,5130.3869,N,00010.8835,W,1,07,1.77,00023,M,047,M,,*7C
$GPGGA,120303.00,5130.3871,N,00010.8823,W,1,07,1.77,00023,M,047,M,,*73
$GPGGA,120304.00,5130.3873,N,00010.8811,W,1,07,1.77,00023,M,047,M,,*77
$GPGGA,120305.00,5130.3875,N,00010.8799,W,1,07,1.77,00023,M,047,M,,*7F
$GPGGA,120306.00,5130.3876,N,00010.8787,W,1,07,1.77,00023,M,047,M,,*70
$GPGGA,120307.00,5130.3878,N,00010.8775,W,1,07,1.77,00023,M,047,M,,*72
$GPGGA,120308.00,5130.3879,N,00010.8762,W,1,06,1.90,00023,M,047,M,,*72
$GPGGA,120309.00,5130.3881,N,00010.8750,W,1,06,1.90,00023,M,047,M,,*75
$GPGGA,120310.00,5130.3883,N,00010.8738,W,1,06,1.90,00023,M,047,M,,*71
$GPGGA,120311.00,5130.3885,N,00010.8726,W,1,05,2.07,00023,M,047,M,,*77
$GPGGA,120312.00,5130.3887,N,00010.8713,W,1,05,2.07,00023,M,047,M,,*70
$GPGGA,120313.00,5130.3889,N,00010.8701,W,1,06,1.90,00024,M,047,M,,*75
$GPGGA,120314.00,5130.3891,N,00010.8689,W,1,06,1.90,00024,M,047,M,,*7A
$GPGGA,120315.00,5130.3893,N,00010.8677,W,1,07,1.77,00024,M,047,M,,*70
$GPGGA,120316.00,5130.3895,N,00010.8666,W,1,07,1.77,00024,M,047,M,,*75
$GPGGA,120317.00,5130.3897,N,00010.8654,W,1,07,1.77,00024,M,047,M,,*77
$GPGGA,120318.00,5130.3898,N,00010.8642,W,1,07,1.77,00024,M,047,M,,*70
$GPGGA,120319.00,5130.3900,N,00010.8631,W,1,07,1.77,00024,M,047,M,,*75
$GPGGA,120320.00,5130.3902,N,00010.8619,W,1,07,1.77,00024,M,047,M,,*77
$GPGGA,120321.00,5130.3904,N,00010.8607,W,1,06,1.90,00024,M,047,M,,*77
$GPGGA,120322.00,5130.3906,N,00010.8595,W,1,07,1.77,00024,M,047,M,,*76
$GPGGA,120323.00,5130.3908,N,00010.8584,W,1,07,1.77,00024,M,047,M,,*79
$GPGGA,120324.00,5130.3910,N,00010.8573,W,1,07,1.77,00024,M,047,M,,*7F
$GPGGA,120325.00,5130.3912,N,00010.8562,W,1,07,1.77,00024,M,047,M,,*7C
$GPGGA,120326.00,5130.3915,N,00010.8551,W,1,06,2.20,00024,M,047,M,,*78
$GPGGA,120327.00,5130.3917,N,00010.8539,W,1,06,2.20,00024,M,047,M,,*75
$GPGGA,120328.00,5130.3920,N,00010.8528,W,1,07,1.77,00024,M,047,M,,*7E
$GPGGA,120329.00,5130.3923,N,00010.8517,W,1,07,1.77,00024,M,047,M,,*70
$GPGGA,120330.00,5130.3926,N,00010.8506,W,1,07,1.77,00024,M,047,M,,*7D
$GPGGA,120331.00,5130.3928,N,00010.8495,W,1,07,1.77,00024,M,047,M,,*79
$GPGGA,120332.00,5130.3930,N,00010.8483,W,1,07,1.77,00024,M,047,M,,*74
$GPGGA,120333.00,5130.3932,N,00010.8472,W,1,07,1.77,00024,M,047,M,,*79
$GPGGA,120334.00,5130.3935,N,00010.8460,W,1,07,1.77,00024,M,047,M,,*7A
$GPGGA,120335.00,5130.3937,N,00010.8449,W,1,07,1.77,00024,M,047,M,,*72
$GPGGA,120336.00,5130.3939,N,00010.8438,W,1,05,2.57,00024,M,047,M,,*7A
$GPGGA,120337.00,5130.3941,N,00010.8427,W,1,05,2.08,00024,M,047,M,,*70
$GPGGA,120338.00,5130.3943,N,00010.8416,W,1,07,1.77,00024,M,047,M,,*76
$GPGGA,120339.00,5130.3945,N,00010.8405,W,1,07,1.77,00024,M,047,M,,*73
$GPGGA,120340.00,5130.3948,N,00010.8393,W,1,05,1.99,00024,M,047,M,,*7A
$GPGGA,120341.00,5130.3950,N,00010.8383,W,1,06,1.90,00024,M,047,M,,*79
$GPGGA,120342.00,5130.3952,N,00010.8372,W,1,07,1.77,00024,M,047,M,,*7E
$GPGGA,120343.00,5130.3954,N,00010.8360,W,1,07,1.77,00024,M,047,M,,*7A
$GPGGA,120344.00,5130.3956,N,00010.8347,W,1,07,1.77,00024,M,047,M,,*7A
$GPGGA,120345.00,5130.3958,N,00010.8335,W,1,07,1.77,00024,M,047,M,,*70
$GPGGA,120346.00,5130.3960,N,00010.8323,W,1,06,1.90,00024,M,047,M,,*77
$GPGGA,120347.00,5130.3962,N,00010.8311,W,1,06,2.89,00024,M,047,M,,*7E
$GPGGA,120348.00,5130.3964,N,00010.8300,W,1,06,2.89,00024,M,047,M,,*77
$GPGGA,120349.00,5130.3966,N,00010.8289,W,1,06,2.89,00024,M,047,M,,*74
$GPGGA,120350.00,5130.3968,N,00010.8277,W,1,06,2.89,00024,M,047,M,,*73
$GPGGA,120351.00,5130.3970,N,00010.8265,W,1,06,2.89,00024,M,047,M,,*78
$GPGGA,120352.00,5130.3971,N,00010.8253,W,1,06,1.90,00024,M,047,M,,*74
$GPGGA,120353.00,5130.3973,N,00010.8242,W,1,07,1.77,00024,M,047,M,,*7F
$GPGGA,120354.00,5130.3975,N,00010.8230,W,1,06,2.89,00024,M,047,M,,*78
$GPGGA,120355.00,5130.3977,N,00010.8218,W,1,06,2.89,00024,M,047,M,,*71
$GPGGA,120356.00,5130.3978,N,00010.8203,W,1,08,1.03,00024,M,047,M,,*78
$GPGGA,120357.00,5130.3979,N,00010.8190,W,1,08,1.03,00024,M,047,M,,*71
$GPGGA,120358.00,5130.3979,N,00010.8177,W,1,07,1.18,00025,M,047,M,,*73
$GPGGA,120359.00,5130.3981,N,00010.8165,W,1,06,1.90,00025,M,047,M,,*77
$GPGGA,120400.00,5130.3982,N,00010.8155,W,1,07,1.77,00025,M,047,M,,*74
$GPGGA,120401.00,5130.3985,N,00010.8144,W,1,07,1.77,00025,M,047,M,,*72
$GPGGA,120402.00,5130.3987,N,00010.8133,W,1,07,1.77,00025,M,047,M,,*73
$GPGGA,120403.00,5130.3989,N,00010.8121,W,1,07,1.77,00025,M,047,M,,*7F
$GPGGA,120404.00,5130.3991,N,00010.8109,W,1,07,1.77,00025,M,047,M,,*7B
$GPGGA,120405.00,5130.3993,N,00010.8098,W,1,07,1.77,00025,M,047,M,,*71
$GPGGA,120406.00,5130.3995,N,00010.8086,W,1,07,1.77,00025,M,047,M,,*7B
$GPGGA,120407.00,5130.3997,N,00010.8075,W,1,07,1.77,00025,M,047,M,,*74
$GPGGA,120408.00,5130.3999,N,00010.8063,W,1,07,1.77,00025,M,047,M,,*72
$GPGGA,120409.00,5130.4001,N,00010.8052,W,1,07,1.77,00025,M,047,M,,*7E
$GPGGA,120410.00,5130.4003,N,00010.8041,W,1,06,1.91,00025,M,047,M,,*7F
$GPGGA,120411.00,5130.4005,N,00010.8029,W,1,07,1.77,00025,M,047,M,,*7F
$GPGGA,120412.00,5130.4006,N,00010.8018,W,1,07,1.77,00025,M,047,M,,*7D
$GPGGA,120413.00,5130.4008,N,00010.8006,W,1,07,1.77,00025,M,047,M,,*7D
$GPGGA,120414.00,5130.4010,N,00010.7994,W,1,07,1.77,00025,M,047,M,,*7E
$GPGGA,120415.00,5130.4012,N,00010.7983,W,1,07,1.77,00026,M,047,M,,*78
$GPGGA,120416.00,5130.4014,N,00010.7970,W,1,07,1.77,00026,M,047,M,,*71
$GPGGA,120417.00,5130.4016,N,00010.7959,W,1,07,1.77,00026,M,047,M,,*79
$GPGGA,120418.00,5130.4018,N,00010.7947,W,1,07,1.77,00026,M,047,M,,*77
$GPGGA,120419.00,5130.4021,N,00010.7936,W,1,05,2.57,00026,M,047,M,,*79
$GPGGA,120420.00,5130.4023,N,00010.7926,W,1,06,2.14,00026,M,047,M,,*74
$GPGGA,120421.00,5130.4025,N,00010.7915,W,1,07,1.77,00026,M,047,M,,*74
$GPGGA,120422.00,5130.4028,N,00010.7903,W,1,06,1.88,00026,M,047,M,,*7C
$GPGGA,120423.00,5130.4030,N,00010.7891,W,1,07,1.77,00026,M,047,M,,*7F
$GPGGA,120424.00,5130.4032,N,00010.7879,W,1,07,1.77,00026,M,047,M,,*7C
$GPGGA,120425.00,5130.4035,N,00010.7868,W,1,07,1.77,00026,M,047,M,,*7A
$GPGGA,120426.00,5130.4037,N,00010.7858,W,1,07,1.77,00026,M,047,M,,*78
$GPGGA,120427.00,5130.4038,N,00010.7844,W,1,08,1.03,00026,M,047,M,,*77
$GPGGA,120428.00,5130.4039,N,00010.7832,W,1,08,1.03,00026,M,047,M,,*78
$GPGGA,120429.00,5130.4040,N,00010.7820,W,1,07,1.10,00026,M,047,M,,*79
$GPGGA,120430.00,5130.4042,N,00010.7807,W,1,07,1.10,00026,M,047,M,,*76
$GPGGA,120431.00,5130.4044,N,00010.7795,W,1,07,1.77,00026,M,047,M,,*74
$GPGGA,120432.00,5130.4046,N,00010.7783,W,1,07,1.77,00026,M,047,M,,*72
$GPGGA,120433.00,5130.4048,N,00010.7771,W,1,07,1.77,00026,M,047,M,,*70
$GPGGA,120434.00,5130.4050,N,00010.7759,W,1,07,1.77,00026,M,047,M,,*74
$GPGGA,120435.00,5130.4053,N,00010.7748,W,1,07,1.77,00026,M,047,M,,*76
$GPGGA,120436.00,5130.4055,N,00010.7737,W,1,07,1.77,00026,M,047,M,,*7B
$GPGGA,120437.00,5130.4058,N,00010.7726,W,1,07,1.77,00026,M,047,M,,*77
$GPGGA,120438.00,5130.4060,N,00010.7714,W,1,07,1.77,00026,M,047,M,,*72
$GPGGA,120439.00,5130.4063,N,00010.7703,W,1,07,1.77,00026,M,047,M,,*76
$GPGGA,120440.00,5130.4065,N,00010.7692,W,1,07,1.77,00026,M,047,M,,*77
$GPGGA,120441.00,5130.4068,N,00010.7680,W,1,07,1.77,00026,M,047,M,,*78
$GPGGA,120442.00,5130.4070,N,00010.7668,W,1,06,2.21,00026,M,047,M,,*75
$GPGGA,120443.00,5130.4072,N,00010.7657,W,1,07,1.77,00026,M,047,M,,*7B
$GPGGA,120444.00,5130.4074,N,00010.7645,W,1,07,1.77,00026,M,047,M,,*79
$GPGGA,120445.00,5130.4076,N,00010.7633,W,1,07,1.77,00026,M,047,M,,*7B
$GPGGA,120446.00,5130.4077,N,00010.7621,W,1,07,1.77,00026,M,047,M,,*7A
$GPGGA,120447.00,5130.4079,N,00010.7608,W,1,07,1.77,00026,M,047,M,,*7E
$GPGGA,120448.00,5130.4081,N,00010.7596,W,1,07,1.77,00026,M,047,M,,*72
$GPGGA,120449.00,5130.4083,N,00010.7584,W,1,07,1.77,00026,M,047,M,,*72
$GPGGA,120450.00,5130.4086,N,00010.7573,W,1,07,1.77,00026,M,047,M,,*77
$GPGGA,120451.00,5130.4089,N,00010.7561,W,1,07,1.77,00026,M,047,M,,*7A
$GPGGA,120452.00,5130.4091,N,00010.7549,W,1,07,1.77,00026,M,047,M,,*7A
$GPGGA,120453.00,5130.4093,N,00010.7537,W,1,06,1.91,00026,M,047,M,,*79
$GPGGA,120454.00,5130.4096,N,00010.7526,W,1,07,1.77,00026,M,047,M,,*72
$GPGGA,120455.00,5130.4098,N,00010.7514,W,1,07,1.77,00026,M,047,M,,*7C
$GPGGA,120456.00,5130.4100,N,00010.7503,W,1,07,1.77,00026,M,047,M,,*79
$GPGGA,120457.00,5130.4102,N,00010.7492,W,1,07,1.77,00026,M,047,M,,*73
$GPGGA,120458.00,5130.4104,N,00010.7480,W,1,07,1.05,00026,M,047,M,,*7C
$GPGGA,120459.00,5130.4107,N,00010.7470,W,1,06,2.21,00026,M,047,M,,*75
$GPGGA,120500.00,5130.4109,N,00010.7459,W,1,06,2.21,00025,M,047,M,,*7E
$GPGGA,120501.00,5130.4112,N,00010.7448,W,1,07,1.77,00025,M,047,M,,*74
$GPGGA,120502.00,5130.4114,N,00010.7437,W,1,07,1.77,00025,M,047,M,,*79
$GPGGA,120503.00,5130.4116,N,00010.7426,W,1,07,1.77,00025,M,047,M,,*7A
$GPGGA,120504.00,5130.4118,N,00010.7415,W,1,07,1.77,00025,M,047,M,,*73
$GPGGA,120505.00,5130.4120,N,00010.7402,W,1,08,1.03,00025,M,047,M,,*73
$GPGGA,120506.00,5130.4122,N,00010.7391,W,1,07,1.77,00025,M,047,M,,*73
$GPGGA,120507.00,5130.4125,N,00010.7379,W,1,07,1.77,00025,M,047,M,,*73
$GPGGA,120508.00,5130.4127,N,00010.7368,W,1,07,1.77,00025,M,047,M,,*7E
$GPGGA,120509.00,5130.4129,N,00010.7356,W,1,08,1.03,00025,M,047,M,,*70
$GPGGA,120510.00,5130.4131,N,00010.7343,W,1,07,1.10,00025,M,047,M,,*78
$GPGGA,120511.00,5130.4133,N,00010.7332,W,1,07,1.77,00025,M,047,M,,*7C
$GPGGA,120512.00,5130.4134,N,00010.7320,W,1,06,1.84,00025,M,047,M,,*76
$GPGGA,120513.00,5130.4134,N,00010.7307,W,1,06,1.27,00025,M,047,M,,*7B
$GPGGA,120514.00,5130.4135,N,00010.7295,W,1,06,1.27,00025,M,047,M,,*77
$GPGGA,120515.00,5130.4136,N,00010.7283,W,1,06,1.27,00025,M,047,M,,*72
$GPGGA,120516.00,5130.4136,N,00010.7271,W,1,06,1.27,00025,M,047,M,,*7C
$GPGGA,120517.00,5130.4137,N,00010.7261,W,1,06,2.92,00025,M,047,M,,*70
$GPGGA,120518.00,5130.4137,N,00010.7250,W,1,07,1.10,00025,M,047,M,,*75
$GPGGA,120519.00,5130.4137,N,00010.7239,W,1,06,1.84,00025,M,047,M,,*77
$GPGGA,120520.00,5130.4136,N,00010.7228,W,1,06,1.27,00025,M,047,M,,*75
$GPGGA,120521.00,5130.4136,N,00010.7219,W,1,07,1.19,00025,M,047,M,,*7A
$GPGGA,120522.00,5130.4136,N,00010.7209,W,1,06,1.84,00025,M,047,M,,*7D
$GPGGA,120523.00,5130.4134,N,00010.7199,W,1,06,1.84,00025,M,047,M,,*74
$GPGGA,120524.00,5130.4128,N,00010.7186,W,1,07,1.17,00025,M,047,M,,*7B
$GPGGA,120525.00,5130.4122,N,00010.7173,W,1,06,1.58,00025,M,047,M,,*70
$GPGGA,120526.00,5130.4116,N,00010.7160,W,1,06,1.58,00025,M,047,M,,*76
$GPGGA,120527.00,5130.4113,N,00010.7152,W,1,06,1.27,00025,M,047,M,,*7B
$GPGGA,120528.00,5130.4110,N,00010.7143,W,1,06,1.27,00025,M,047,M,,*77
$GPGGA,120529.00,5130.4106,N,00010.7134,W,1,06,1.27,00025,M,047,M,,*71
$GPGGA,120530.00,5130.4101,N,00010.7125,W,1,06,1.27,00025,M,047,M,,*7E
$GPGGA,120531.00,5130.4097,N,00010.7116,W,1,06,1.27,00025,M,047,M,,*71
$GPGGA,120532.00,5130.4092,N,00010.7107,W,1,06,1.27,00025,M,047,M,,*77
$GPGGA,120533.00,5130.4088,N,00010.7098,W,1,08,1.06,00025,M,047,M,,*77
$GPGGA,120534.00,5130.4084,N,00010.7089,W,1,07,1.16,00025,M,047,M,,*72
$GPGGA,120535.00,5130.4080,N,00010.7081,W,1,06,1.81,00025,M,047,M,,*70
$GPGGA,120536.00,5130.4076,N,00010.7073,W,1,06,1.81,00025,M,047,M,,*77
$GPGGA,120537.00,5130.4072,N,00010.7065,W,1,06,1.81,00025,M,047,M,,*75
$GPGGA,120538.00,5130.4067,N,00010.7057,W,1,07,1.16,00025,M,047,M,,*70
$GPGGA,120539.00,5130.4062,N,00010.7050,W,1,07,1.22,00025,M,047,M,,*74
$GPGGA,120540.00,5130.4056,N,00010.7044,W,1,06,1.66,00025,M,047,M,,*79
$GPGGA,120541.00,5130.4049,N,00010.7038,W,1,06,1.66,00025,M,047,M,,*7D
$GPGGA,120542.00,5130.4044,N,00010.7030,W,1,05,1.69,00025,M,047,M,,*77
$GPGGA,120543.00,5130.4039,N,00010.7022,W,1,05,2.04,00025,M,047,M,,*77
$GPGGA,120544.00,5130.4035,N,00010.7013,W,1,07,1.16,00025,M,047,M,,*7C
$GPGGA,120545.00,5130.4034,N,00010.7002,W,1,07,1.17,00025,M,047,M,,*7D
$GPGGA,120546.00,5130.4031,N,00010.6990,W,1,06,1.30,00025,M,047,M,,*7C
$GPGGA,120547.00,5130.4032,N,00010.6978,W,1,06,1.59,00025,M,047,M,,*77
$GPGGA,120548.00,5130.4033,N,00010.6967,W,1,05,2.08,00025,M,047,M,,*73
$GPGGA,120549.00,5130.4037,N,00010.6957,W,1,05,2.08,00025,M,047,M,,*75
$GPGGA,120550.00,5130.4042,N,00010.6948,W,1,06,1.17,00025,M,047,M,,*7F
$GPGGA,120551.00,5130.4049,N,00010.6943,W,1,06,1.84,00025,M,047,M,,*74
$GPGGA,120552.00,5130.4056,N,00010.6938,W,1,06,1.17,00025,M,047,M,,*7F
$GPGGA,120553.00,5130.4064,N,00010.6935,W,1,06,1.17,00025,M,047,M,,*72
$GPGGA,120554.00,5130.4071,N,00010.6933,W,1,07,1.10,00025,M,047,M,,*71
$GPGGA,120555.00,5130.4079,N,00010.6934,W,1,07,1.10,00025,M,047,M,,*7F
$GPGGA,120556.00,5130.4086,N,00010.6936,W,1,08,0.97,00024,M,047,M,,*7E
$GPGGA,120557.00,5130.4094,N,00010.6940,W,1,07,1.30,00024,M,047,M,,*7E
$GPGGA,120558.00,5130.4102,N,00010.6945,W,1,07,1.30,00024,M,047,M,,*7A
$GPGGA,120559.00,5130.4108,N,00010.6952,W,1,06,1.71,00024,M,047,M,,*73
$GPGGA,120600.00,5130.4115,N,00010.6958,W,1,07,1.30,00024,M,047,M,,*7E
$GPGGA,120601.00,5130.4122,N,00010.6965,W,1,07,1.30,00024,M,047,M,,*75
$GPGGA,120602.00,5130.4128,N,00010.6973,W,1,07,1.30,00024,M,047,M,,*7B
$GPGGA,120603.00,5130.4135,N,00010.6980,W,1,07,1.30,00024,M,047,M,,*7A
$GPGGA,120604.00,5130.4141,N,00010.6988,W,1,07,1.30,00025,M,047,M,,*77
$GPGGA,120605.00,5130.4147,N,00010.6995,W,1,07,1.30,00025,M,047,M,,*7C
$GPGGA,120606.00,5130.4153,N,00010.7001,W,1,06,1.81,00025,M,047,M,,*74
$GPGGA,120607.00,5130.4160,N,00010.7006,W,1,06,1.83,00025,M,047,M,,*70
$GPGGA,120608.00,5130.4164,N,00010.7011,W,1,08,0.97,00025,M,047,M,,*77
$GPGGA,120609.00,5130.4171,N,00010.7016,W,1,06,1.83,00025,M,047,M,,*7F
$GPGGA,120610.00,5130.4179,N,00010.7020,W,1,06,1.83,00025,M,047,M,,*7A
$GPGGA,120611.00,5130.4187,N,00010.7024,W,1,06,1.83,00025,M,047,M,,*7E
$GPGGA,120612.00,5130.4194,N,00010.7028,W,1,06,1.83,00025,M,047,M,,*73
$GPGGA,120613.00,5130.4198,N,00010.7033,W,1,07,1.16,00025,M,047,M,,*79
$GPGGA,120614.00,5130.4206,N,00010.7038,W,1,05,1.99,00025,M,047,M,,*74
$GPGGA,120615.00,5130.4214,N,00010.7040,W,1,05,1.99,00025,M,047,M,,*79
$GPGGA,120616.00,5130.4222,N,00010.7043,W,1,04,2.07,00025,M,047,M,,*79
$GPGGA,120617.00,5130.4230,N,00010.7046,W,1,05,1.99,00025,M,047,M,,*7B
$GPGGA,120618.00,5130.4237,N,00010.7048,W,1,05,1.99,00025,M,047,M,,*7D
$GPGGA,120619.00,5130.4245,N,00010.7051,W,1,05,1.99,00025,M,047,M,,*71
$GPGGA,120620.00,5130.4253,N,00010.7055,W,1,05,1.99,00025,M,047,M,,*78
$GPGGA,120621.00,5130.4261,N,00010.7058,W,1,05,1.99,00026,M,047,M,,*76
$GPGGA,120622.00,5130.4268,N,00010.7062,W,1,06,1.84,00026,M,047,M,,*7A
$GPGGA,120623.00,5130.4276,N,00010.7065,W,1,06,1.84,00026,M,047,M,,*73
$GPGGA,120624.00,5130.4281,N,00010.7071,W,1,06,1.18,00026,M,047,M,,*7C
$GPGGA,120625.00,5130.4287,N,00010.7076,W,1,07,1.10,00026,M,047,M,,*75
$GPGGA,120626.00,5130.4292,N,00010.7080,W,1,07,1.10,00026,M,047,M,,*7B
$GPGGA,120627.00,5130.4298,N,00010.7085,W,1,07,1.10,00026,M,047,M,,*75
$GPGGA,120628.00,5130.4303,N,00010.7090,W,1,07,1.10,00025,M,047,M,,*7E
$GPGGA,120629.00,5130.4309,N,00010.7095,W,1,07,1.10,00025,M,047,M,,*70
$GPGGA,120630.00,5130.4314,N,00010.7100,W,1,07,1.10,00025,M,047,M,,*79
$GPGGA,120631.00,5130.4322,N,00010.7103,W,1,06,1.84,00025,M,047,M,,*72
$GPGGA,120632.00,5130.4328,N,00010.7109,W,1,07,1.10,00025,M,047,M,,*7D
$GPGGA,120633.00,5130.4333,N,00010.7114,W,1,07,1.10,00025,M,047,M,,*7A
$GPGGA,120634.00,5130.4339,N,00010.7117,W,1,06,1.18,00025,M,047,M,,*7D
$GPGGA,120635.00,5130.4346,N,00010.7122,W,1,07,1.10,00025,M,047,M,,*7B
$GPGGA,120636.00,5130.4354,N,00010.7125,W,1,06,1.84,00024,M,047,M,,*71
$GPGGA,120637.00,5130.4362,N,00010.7127,W,1,06,1.84,00024,M,047,M,,*77
$GPGGA,120638.00,5130.4367,N,00010.7131,W,1,07,1.10,00024,M,047,M,,*76
$GPGGA,120639.00,5130.4374,N,00010.7134,W,1,07,1.06,00024,M,047,M,,*77
$GPGGA,120640.00,5130.4383,N,00010.7138,W,1,06,1.84,00024,M,047,M,,*76
$GPGGA,120641.00,5130.4389,N,00010.7141,W,1,06,1.84,00024,M,047,M,,*73
$GPGGA,120642.00,5130.4396,N,00010.7144,W,1,06,1.84,00024,M,047,M,,*7B
$GPGGA,120643.00,5130.4401,N,00010.7149,W,1,07,1.10,00023,M,047,M,,*75
$GPGGA,120644.00,5130.4408,N,00010.7152,W,1,06,1.84,00023,M,047,M,,*7D
$GPGGA,120645.00,5130.4415,N,00010.7154,W,1,06,1.84,00023,M,047,M,,*76
$GPGGA,120646.00,5130.4421,N,00010.7157,W,1,06,1.18,00023,M,047,M,,*74
$GPGGA,120647.00,5130.4429,N,00010.7161,W,1,06,1.84,00023,M,047,M,,*7D
$GPGGA,120648.00,5130.4436,N,00010.7164,W,1,06,1.84,00023,M,047,M,,*79
$GPGGA,120649.00,5130.4444,N,00010.7166,W,1,06,1.84,00023,M,047,M,,*7F
$GPGGA,120650.00,5130.4452,N,00010.7168,W,1,06,1.84,00022,M,047,M,,*7F
$GPGGA,120651.00,5130.4460,N,00010.7170,W,1,06,1.84,00022,M,047,M,,*76
$GPGGA,120652.00,5130.4467,N,00010.7172,W,1,06,1.84,00022,M,047,M,,*70
$GPGGA,120653.00,5130.4472,N,00010.7175,W,1,07,1.10,00022,M,047,M,,*7E
$GPGGA,120654.00,5130.4479,N,00010.7178,W,1,06,1.84,00022,M,047,M,,*73
$GPGGA,120655.00,5130.4486,N,00010.7181,W,1,06,1.84,00022,M,047,M,,*74
$GPGGA,120656.00,5130.4491,N,00010.7184,W,1,06,1.18,00022,M,047,M,,*71
$GPGGA,120657.00,5130.4499,N,00010.7187,W,1,06,1.85,00022,M,047,M,,*7F
$GPGGA,120658.00,5130.4507,N,00010.7189,W,1,06,1.85,00022,M,047,M,,*78
$GPGGA,120659.00,5130.4515,N,00010.7192,W,1,06,1.85,00022,M,047,M,,*70
$GPGGA,120700.00,5130.4519,N,00010.7197,W,1,06,1.27,00022,M,047,M,,*7C
$GPGGA,120701.00,5130.4527,N,00010.7200,W,1,06,1.85,00022,M,047,M,,*75
$GPGGA,120702.00,5130.4535,N,00010.7203,W,1,06,1.85,00022,M,047,M,,*76
$GPGGA,120703.00,5130.4539,N,00010.7207,W,1,06,1.18,00021,M,047,M,,*78
$GPGGA,120704.00,5130.4544,N,00010.7211,W,1,05,1.23,00021,M,047,M,,*79
$GPGGA,120705.00,5130.4550,N,00010.7214,W,1,06,1.85,00021,M,047,M,,*77
$GPGGA,120706.00,5130.4557,N,00010.7217,W,1,06,1.85,00021,M,047,M,,*70
$GPGGA,120707.00,5130.4564,N,00010.7220,W,1,06,1.85,00021,M,047,M,,*75
$GPGGA,120708.00,5130.4571,N,00010.7223,W,1,05,1.99,00021,M,047,M,,*73
$GPGGA,120709.00,5130.4578,N,00010.7226,W,1,05,1.99,00020,M,047,M,,*7F
$GPGGA,120710.00,5130.4585,N,00010.7229,W,1,05,1.99,00020,M,047,M,,*7A
$GPGGA,120711.00,5130.4592,N,00010.7232,W,1,05,1.99,00020,M,047,M,,*77
$GPGGA,120712.00,5130.4600,N,00010.7235,W,1,05,1.99,00020,M,047,M,,*7B
$GPGGA,120713.00,5130.4607,N,00010.7238,W,1,06,1.85,00020,M,047,M,,*7E
$GPGGA,120714.00,5130.4615,N,00010.7241,W,1,05,1.99,00020,M,047,M,,*7A
$GPGGA,120715.00,5130.4622,N,00010.7244,W,1,05,1.99,00020,M,047,M,,*7A
$GPGGA,120716.00,5130.4628,N,00010.7249,W,1,06,1.85,00020,M,047,M,,*70
$GPGGA,120717.00,5130.4635,N,00010.7254,W,1,06,1.85,00020,M,047,M,,*71
$GPGGA,120718.00,5130.4641,N,00010.7259,W,1,05,1.99,00020,M,047,M,,*7E
$GPGGA,120719.00,5130.4648,N,00010.7263,W,1,06,1.85,00019,M,047,M,,*7B
$GPGGA,120720.00,5130.4654,N,00010.7266,W,1,05,1.99,00019,M,047,M,,*77
$GPGGA,120721.00,5130.4662,N,00010.7269,W,1,05,2.00,00019,M,047,M,,*7F
$GPGGA,120722.00,5130.4669,N,00010.7271,W,1,06,1.85,00019,M,047,M,,*73
$GPGGA,120723.00,5130.4676,N,00010.7274,W,1,06,1.85,00019,M,047,M,,*79
$GPGGA,120724.00,5130.4684,N,00010.7277,W,1,05,2.00,00019,M,047,M,,*7D
$GPGGA,120725.00,5130.4691,N,00010.7279,W,1,06,1.85,00019,M,047,M,,*7B
$GPGGA,120726.00,5130.4700,N,00010.7279,W,1,06,1.85,00019,M,047,M,,*71
$GPGGA,120727.00,5130.4708,N,00010.7280,W,1,06,1.85,00019,M,047,M,,*7E
$GPGGA,120728.00,5130.4715,N,00010.7283,W,1,06,1.85,00019,M,047,M,,*7E
$GPGGA,120729.00,5130.4722,N,00010.7286,W,1,06,1.85,00019,M,047,M,,*7E
$GPGGA,120730.00,5130.4730,N,00010.7288,W,1,05,2.00,00020,M,047,M,,*7C
$GPGGA,120731.00,5130.4735,N,00010.7290,W,1,05,1.23,00020,M,047,M,,*73
$GPGGA,120732.00,5130.4739,N,00010.7293,W,1,05,1.32,00020,M,047,M,,*7F
$GPGGA,120733.00,5130.4744,N,00010.7298,W,1,06,1.19,00020,M,047,M,,*75
$GPGGA,120734.00,5130.4749,N,00010.7301,W,1,06,1.19,00019,M,047,M,,*74
$GPGGA,120735.00,5130.4756,N,00010.7303,W,1,06,1.86,00019,M,047,M,,*7F
$GPGGA,120736.00,5130.4763,N,00010.7306,W,1,06,1.86,00019,M,047,M,,*7F
$GPGGA,120737.00,5130.4771,N,00010.7308,W,1,06,1.86,00019,M,047,M,,*73
$GPGGA,120738.00,5130.4778,N,00010.7310,W,1,06,1.86,00019,M,047,M,,*7C
$GPGGA,120739.00,5130.4785,N,00010.7313,W,1,06,1.86,00019,M,047,M,,*7C
$GPGGA,120740.00,5130.4792,N,00010.7317,W,1,06,1.86,00019,M,047,M,,*70
$GPGGA,120741.00,5130.4799,N,00010.7321,W,1,06,1.86,00019,M,047,M,,*7F
$GPGGA,120742.00,5130.4805,N,00010.7324,W,1,06,1.86,00018,M,047,M,,*72
$GPGGA,120743.00,5130.4812,N,00010.7327,W,1,06,1.86,00018,M,047,M,,*76
$GPGGA,120744.00,5130.4820,N,00010.7330,W,1,06,1.86,00018,M,047,M,,*76
$GPGGA,120745.00,5130.4827,N,00010.7334,W,1,06,1.86,00018,M,047,M,,*74
$GPGGA,120746.00,5130.4834,N,00010.7338,W,1,05,2.00,00018,M,047,M,,*77
$GPGGA,120747.00,5130.4842,N,00010.7342,W,1,05,2.00,00018,M,047,M,,*7A
$GPGGA,120748.00,5130.4849,N,00010.7347,W,1,06,1.86,00018,M,047,M,,*75
$GPGGA,120749.00,5130.4856,N,00010.7351,W,1,06,1.86,00018,M,047,M,,*7D
$GPGGA,120750.00,5130.4864,N,00010.7356,W,1,06,1.86,00018,M,047,M,,*73
$GPGGA,120751.00,5130.4872,N,00010.7359,W,1,06,1.86,00018,M,047,M,,*7A
$GPGGA,120752.00,5130.4879,N,00010.7364,W,1,06,1.86,00018,M,047,M,,*7C
$GPGGA,120753.00,5130.4886,N,00010.7370,W,1,06,1.86,00018,M,047,M,,*78
$GPGGA,120754.00,5130.4892,N,00010.7374,W,1,06,1.86,00017,M,047,M,,*71
$GPGGA,120755.00,5130.4899,N,00010.7378,W,1,06,1.86,00017,M,047,M,,*77
$GPGGA,120756.00,5130.4906,N,00010.7384,W,1,06,1.86,00017,M,047,M,,*70
$GPGGA,120757.00,5130.4913,N,00010.7387,W,1,05,2.01,00017,M,047,M,,*79
$GPGGA,120758.00,5130.4920,N,00010.7392,W,1,06,1.86,00017,M,047,M,,*7D
$GPGGA,120759.00,5130.4928,N,00010.7396,W,1,05,2.00,00017,M,047,M,,*7E
$GPGGA,120800.00,5130.4936,N,00010.7401,W,1,05,2.00,00017,M,047,M,,*7B
$GPGGA,120801.00,5130.4944,N,00010.7404,W,1,05,2.00,00017,M,047,M,,*7A
$GPGGA,120802.00,5130.4952,N,00010.7406,W,1,05,2.00,00017,M,047,M,,*7C
$GPGGA,120803.00,5130.4959,N,00010.7410,W,1,05,2.00,00017,M,047,M,,*71
$GPGGA,120804.00,5130.4964,N,00010.7415,W,1,06,1.86,00017,M,047,M,,*73
$GPGGA,120805.00,5130.4971,N,00010.7418,W,1,05,2.00,00017,M,047,M,,*75
$GPGGA,120806.00,5130.4979,N,00010.7421,W,1,05,2.00,00017,M,047,M,,*74
$GPGGA,120807.00,5130.4987,N,00010.7424,W,1,05,2.00,00017,M,047,M,,*71
$GPGGA,120808.00,5130.4995,N,00010.7426,W,1,05,2.00,00017,M,047,M,,*7F
$GPGGA,120809.00,5130.5003,N,00010.7428,W,1,05,2.00,00017,M,047,M,,*77
$GPGGA,120810.00,5130.5010,N,00010.7430,W,1,05,2.00,00017,M,047,M,,*74
$GPGGA,120811.00,5130.5017,N,00010.7433,W,1,05,2.00,00017,M,047,M,,*71
$GPGGA,120812.00,5130.5025,N,00010.7435,W,1,05,2.00,00017,M,047,M,,*75
$GPGGA,120813.00,5130.5032,N,00010.7437,W,1,05,2.00,00017,M,047,M,,*70
$GPGGA,120814.00,5130.5040,N,00010.7440,W,1,05,2.00,00017,M,047,M,,*72
$GPGGA,120815.00,5130.5048,N,00010.7443,W,1,05,2.00,00017,M,047,M,,*78
$GPGGA,120816.00,5130.5055,N,00010.7446,W,1,06,1.87,00017,M,047,M,,*7D
$GPGGA,120817.00,5130.5062,N,00010.7446,W,1,05,2.00,00017,M,047,M,,*77
$GPGGA,120818.00,5130.5070,N,00010.7447,W,1,05,2.00,00017,M,047,M,,*7A
$GPGGA,120819.00,5130.5078,N,00010.7449,W,1,05,2.00,00017,M,047,M,,*7D
$GPGGA,120820.00,5130.5086,N,00010.7452,W,1,05,2.00,00017,M,047,M,,*7C
$GPGGA,120821.00,5130.5092,N,00010.7457,W,1,05,2.00,00017,M,047,M,,*7D
$GPGGA,120822.00,5130.5098,N,00010.7467,W,1,05,2.45,00017,M,047,M,,*76
$GPGGA,120823.00,5130.5106,N,00010.7470,W,1,05,2.00,00017,M,047,M,,*76
$GPGGA,120824.00,5130.5113,N,00010.7474,W,1,05,2.00,00017,M,047,M,,*71
$GPGGA,120825.00,5130.5119,N,00010.7480,W,1,05,2.00,00017,M,047,M,,*71
$GPGGA,120826.00,5130.5124,N,00010.7487,W,1,04,2.11,00017,M,047,M,,*7A
$GPGGA,120827.00,5130.5131,N,00010.7491,W,1,05,2.00,00016,M,047,M,,*78
$GPGGA,120828.00,5130.5139,N,00010.7494,W,1,05,2.00,00016,M,047,M,,*7A
$GPGGA,120829.00,5130.5147,N,00010.7498,W,1,05,2.00,00016,M,047,M,,*7E
$GPGGA,120830.00,5130.5154,N,00010.7502,W,1,05,2.00,00016,M,047,M,,*76
$GPGGA,120831.00,5130.5162,N,00010.7506,W,1,05,2.00,00016,M,047,M,,*76
$GPGGA,120832.00,5130.5170,N,00010.7509,W,1,05,2.00,00016,M,047,M,,*79
$GPGGA,120833.00,5130.5176,N,00010.7511,W,1,06,1.87,00015,M,047,M,,*7B
$GPGGA,120834.00,5130.5179,N,00010.7514,W,1,06,1.87,00015,M,047,M,,*76
$GPGGA,120835.00,5130.5185,N,00010.7516,W,1,06,1.87,00014,M,047,M,,*77
$GPGGA,120836.00,5130.5193,N,00010.7519,W,1,08,0.97,00014,M,047,M,,*72
$GPGGA,120837.00,5130.5201,N,00010.7521,W,1,06,1.87,00014,M,047,M,,*7E
$GPGGA,120838.00,5130.5207,N,00010.7525,W,1,06,1.28,00013,M,047,M,,*71
$GPGGA,120839.00,5130.5213,N,00010.7528,W,1,06,1.88,00013,M,047,M,,*72
$GPGGA,120840.00,5130.5218,N,00010.7532,W,1,07,1.11,00013,M,047,M,,*7D
$GPGGA,120841.00,5130.5225,N,00010.7536,W,1,06,1.88,00012,M,047,M,,*76
$GPGGA,120842.00,5130.5233,N,00010.7539,W,1,06,1.88,00012,M,047,M,,*7D
$GPGGA,120843.00,5130.5240,N,00010.7542,W,1,06,1.88,00012,M,047,M,,*74
$GPGGA,120844.00,5130.5248,N,00010.7546,W,1,06,1.88,00011,M,047,M,,*7C
$GPGGA,120845.00,5130.5255,N,00010.7549,W,1,06,1.88,00011,M,047,M,,*7E
$GPGGA,120846.00,5130.5263,N,00010.7552,W,1,06,1.88,00011,M,047,M,,*72
$GPGGA,120847.00,5130.5271,N,00010.7556,W,1,06,1.88,00011,M,047,M,,*74
$GPGGA,120848.00,5130.5278,N,00010.7559,W,1,06,1.88,00011,M,047,M,,*7D
$GPGGA,120849.00,5130.5286,N,00010.7563,W,1,06,1.88,00011,M,047,M,,*74
$GPGGA,120850.00,5130.5293,N,00010.7566,W,1,06,1.88,00011,M,047,M,,*7D
$GPGGA,120851.00,5130.5300,N,00010.7569,W,1,06,1.88,00011,M,047,M,,*78
$GPGGA,120852.00,5130.5306,N,00010.7571,W,1,06,1.88,00011,M,047,M,,*74
$GPGGA,120853.00,5130.5314,N,00010.7574,W,1,06,1.88,00010,M,047,M,,*72
$GPGGA,120854.00,5130.5320,N,00010.7577,W,1,06,1.88,00010,M,047,M,,*71
$GPGGA,120855.00,5130.5323,N,00010.7581,W,1,06,1.88,00010,M,047,M,,*7A
$GPGGA,120856.00,5130.5328,N,00010.7585,W,1,05,1.52,00010,M,047,M,,*72
$GPGGA,120857.00,5130.5334,N,00010.7589,W,1,06,1.88,00010,M,047,M,,*76
$GPGGA,120858.00,5130.5339,N,00010.7593,W,1,06,1.88,00009,M,047,M,,*77
$GPGGA,120859.00,5130.5345,N,00010.7597,W,1,06,1.88,00009,M,047,M,,*79
$GPGGA,120900.00,5130.5351,N,00010.7601,W,1,06,1.88,00009,M,047,M,,*7D
$GPGGA,120901.00,5130.5357,N,00010.7604,W,1,05,2.00,00008,M,047,M,,*7E
$GPGGA,120902.00,5130.5364,N,00010.7607,W,1,05,2.00,00008,M,047,M,,*7E
$GPGGA,120903.00,5130.5371,N,00010.7610,W,1,06,1.88,00008,M,047,M,,*7D
$GPGGA,120904.00,5130.5379,N,00010.7614,W,1,06,1.88,00008,M,047,M,,*76
$GPGGA,120905.00,5130.5385,N,00010.7619,W,1,06,1.88,00008,M,047,M,,*79
$GPGGA,120906.00,5130.5390,N,00010.7625,W,1,06,1.88,00008,M,047,M,,*71
$GPGGA,120907.00,5130.5397,N,00010.7629,W,1,06,1.88,00007,M,047,M,,*74
$GPGGA,120908.00,5130.5404,N,00010.7632,W,1,06,1.88,00007,M,047,M,,*7C
$GPGGA,120909.00,5130.5412,N,00010.7636,W,1,06,1.88,00007,M,047,M,,*7E
$GPGGA,120910.00,5130.5419,N,00010.7638,W,1,06,1.88,00007,M,047,M,,*73
$GPGGA,120911.00,5130.5427,N,00010.7641,W,1,06,1.88,00007,M,047,M,,*71
$GPGGA,120912.00,5130.5434,N,00010.7643,W,1,06,1.12,00007,M,047,M,,*71
$GPGGA,120913.00,5130.5442,N,00010.7646,W,1,07,1.11,00007,M,047,M,,*76
$GPGGA,120914.00,5130.5450,N,00010.7648,W,1,07,1.11,00007,M,047,M,,*7C
$GPGGA,120915.00,5130.5459,N,00010.7651,W,1,07,1.11,00007,M,047,M,,*7C
$GPGGA,120916.00,5130.5467,N,00010.7654,W,1,07,1.11,00007,M,047,M,,*77
$GPGGA,120917.00,5130.5474,N,00010.7657,W,1,06,1.28,00007,M,047,M,,*7C
$GPGGA,120918.00,5130.5482,N,00010.7659,W,1,06,1.28,00007,M,047,M,,*74
